- name: 2024-5-6_16-59-45.pcd
  x_to_base: -321.58910829929675
  y_to_base: -804.97803324422296
  longitude: 117.47696396000001
  latitude: 34.399005749999993
  altitude: 62.767000000000003

- name: 2024-5-4_12-46-58.pcd
  x_to_base: -896.00057067689477
  y_to_base: -481.4855132989772
  longitude: 117.47072763999999
  latitude: 34.401902919999998
  altitude: 52.173999999999999

- name: 2024-5-9_16-44-51.pcd
  longitude: 117.46903898000001
  latitude: 34.401020859999996
  altitude: 49.633000000000003

- name: 2024-5-12-01_from-HT-mount.pcd
  longitude: 117.46865340999999
  latitude: 34.401179959999993
  altitude: 49.335000000000001
- name: 2024-5-12-11_from-DeepMount-Tcrossroad.pcd
  longitude: 117.4796008
  latitude: 34.399743129999997
  altitude: 75.192000000000007

- name: 2024-5-22_10-2-30-kuangka.pcd
  longitude: 117.47305222
  latitude: 34.400414959999999
  altitude: 51.814999999999998

- name: 2024-5-10_16-50-47.pcd
  longitude: 117.4709828
  latitude: 34.399011389999998
  altitude: 48.097000000000001

- name: 2024-5-23_10-16-4-yanshou.pcd
  longitude: 117.47986671999999
  latitude: 34.399626720000001
  altitude: 75.307000000000002


- name: 2024-5-23_10-16-4-yanshou-v2_0.pcd
  longitude: 117.47986671999999
  latitude: 34.399626720000001
  altitude: 75.307000000000002

- name: 2024-5-23_10-16-4-yanshou-v3_01.pcd
  longitude: 117.47986671999999
  latitude: 34.399626720000001
  altitude: 75.307000000000002

- name: 2024-5-23_10-16-4-yanshou-v4_0.pcd
  longitude: 117.47986671999999
  latitude: 34.399626720000001
  altitude: 75.307000000000002


- name: 2024-5-23_10-16-4-yanshou-v4_1.pcd
  longitude: 117.47986671999999
  latitude: 34.399626720000001
  altitude: 75.307000000000002




